#Network | Station | Latitude | Longitude | Elevation | Sitename | StartTime | EndTime

#DATACENTER=IRISDMC,http://ds.iris.edu
8P|CAR02|38.184808|-122.814057|249.7625|Walker Creek Ranch, CA, USA|2019-08-31T20:18:56|2019-09-22T21:35:52
8P|CAR03|38.268016|-122.153409|185.9375|Cook Canyon, CA, USA|2019-11-06T20:15:41|2019-12-06T21:42:14
8P|CAR04|38.245783|-121.489257|1.005|The Meadows Slough, CA, USA|2019-05-03T22:29:40|2019-05-09T00:25:42
8P|CAR05|38.245203|-120.381101|1224.4625|Arnold, CA, USA|2019-07-17T21:32:00|2019-08-07T15:15:03
8P|CAR06|38.312408|-119.912615|2223.725|Donnell Lake, CA, USA|2019-07-16T20:33:51|2019-08-07T20:00:53
8P|CAR07|38.158873|-118.92406|2098.675|Bodie Bluff, CA, USA|2019-08-25T20:45:13|2019-09-16T16:29:34
8P|CAS03|37.65883|-121.959751|484.0|Pleasanton Ridge, CA, USA|2019-10-24T22:07:08|2019-11-08T00:49:32
8P|CAS04|37.633351|-121.468382|329.3875|Corral Hollow, CA, USA|2020-06-02T18:41:43|2020-07-13T21:46:12
8P|CAS05|37.623609|-120.572893|68.9015625|Turlock Lake, CA, USA|2019-07-30T20:17:04|2019-09-10T18:09:20
8P|CAS06|37.544236|-119.863385|1106.25|Buckingham Mountain, CA, USA|2019-07-05T21:55:02|2019-08-07T01:06:54
8P|CAS07|37.656977|-118.814798|2163.35|Whitmore Hot Springs, CA, USA|2019-08-10T16:56:47|2019-09-05T18:54:08
8P|CAT03|37.023969|-121.696719|331.35|Mt. Madonna, CA, USA|2019-11-08T22:45:44|2019-12-06T16:46:51
8P|CAT04|37.035941|-121.232021|397.48125|Spikes Peak, CA, USA|2019-09-28T00:49:33|2019-10-23T19:51:28
8P|CAT05|36.838373|-120.416601|37.31875|East Side Farm, CA, USA|2020-06-28T21:00:44|2020-08-04T02:17:54
8P|CAT06|37.02445|-119.6627|273.75|Millerton Lake, CA, USA|2020-06-05T20:49:13|2020-06-15T17:06:42
8P|CAT07|36.973559|-118.94586|2296.08125|Hoffman Mountain, CA, USA|2019-07-04T21:22:39|2019-08-06T19:25:44
8P|CAT08|36.844945|-118.08834|1437.4625|Mazourka Canyon, CA, USA|2019-11-15T21:35:13|2019-12-05T16:51:02
8P|CAU03|36.284171|-121.850986|3.225|Schmieder Bank, CA, USA|2019-08-13T22:58:33|2019-09-02T16:54:30
8P|CAU04|36.402069|-121.161327|345.925|Topo Creek, CA, USA|2019-08-01T00:52:58|2019-08-21T15:52:17
8P|CAU05|36.260281|-120.422567|678.84375|Donut Rock, CA, USA|2019-08-19T21:55:42|2019-09-09T20:02:12
8P|CAU06|36.290083|-119.575457|62.9|Cross Creek, CA, USA|2019-10-31T12:00:00|2019-11-20T16:49:30
8P|CAU07|36.179363|-118.827149|530.3625|Hickman Creek, CA, USA|2019-08-05T19:52:29|2019-09-07T17:41:45
8P|CAU08|36.221808|-118.176154|2398.55|Monache Meadows, CA, USA|2019-06-27T01:49:37|2019-07-18T22:14:04
8P|CAU09|36.243334|-117.371368|563.775|Panamint Valley, CA, USA|2019-05-16T19:14:01|2019-06-22T16:43:36
8P|CAU10|36.299896|-116.449606|648.65|Amargosa Opera, CA, USA|2019-05-15T18:19:05|2019-06-22T20:11:59
8P|CAV04|35.606865|-121.124306|54.3875|Cambria, CA, USA|2019-07-25T23:34:46|2019-08-14T14:47:52
8P|CAV05|35.665274|-120.240616|613.4875|Bruce Spring, CA, USA|2019-10-16T18:35:24|2019-11-07T16:49:12
8P|CAV06|35.798778|-119.620583|58.3|Tulare Lake, CA, USA|2019-10-30T19:48:00|2019-11-12T20:10:51
8P|CAV07|35.586754|-118.797662|874.2|Pine Mountain, CA, USA|2020-06-09T23:21:35|2020-07-06T16:31:12
8P|CAV08|35.695484|-118.154065|1067.875|Cap Canyon, CA, USA|2020-06-07T19:42:49|2020-07-06T21:39:28
8P|CAV09|35.602902|-117.306032|556.0|Searles Valley, CA, USA|2020-06-08T01:23:56|2020-07-17T16:55:43
8P|CAV10|35.694693|-116.29597|151.1625|Dumont Dunes, CA, USA|2019-05-14T17:10:17|2019-06-23T15:39:41
8P|CAV11|35.723561|-115.644168|797.425|Mesquite Pass, CA, USA|2019-05-13T18:50:30|2019-07-01T16:37:54
8P|CAW05|35.135746|-120.317978|448.25|Bald Mountain, CA, USA|2019-10-06T03:12:48|2019-10-26T17:46:02
8P|CAW06|35.079007|-119.550872|744.775|Elkhorn Hills, CA, USA|2019-09-20T04:51:23|2019-10-14T23:24:27
8P|CAW07|35.067968|-118.630998|1257.6|Cedar Canyon, CA, USA|2020-07-09T23:01:15|2020-08-06T18:50:41
8P|CAW08|35.069701|-117.996928|745.2|California City, CA, USA|2019-11-14T17:48:27|2019-12-04T20:11:28
8P|CAW09|35.090125|-117.124276|805.4|Water Valley, CA, USA|2019-11-05T21:23:03|2019-11-29T07:36:01
8P|CAW10|34.965558|-116.352122|648.875|Hidden Valley, CA, USA|2019-07-10T20:39:17|2019-08-02T16:31:19
8P|CAW11|35.088283|-115.571401|869.2625|Kelso Wash, CA, USA|2019-10-28T21:06:34|2019-11-21T23:01:25
8P|CAW12|35.083698|-114.994648|935.45|Fort Piute, CA, USA|2019-05-12T20:53:28|2019-06-24T16:43:45
8P|CAX05|34.552325|-120.345021|237.975|Santa Ynez Mountains, CA, USA|2020-06-26T19:25:50|2020-07-16T17:12:00
8P|CAX06|34.48798|-119.494507|675.85|Jameson Lake, CA, USA|2019-11-05T00:39:18|2019-12-03T17:19:48
8P|CAX07|34.506479|-118.766865|442.825|Lake Piru, CA, USA|2019-06-06T21:58:39|2019-06-25T16:16:19
8P|CAX08|34.474023|-118.099213|1146.225|Soledad Canyon, CA, USA|2019-11-14T22:14:50|2019-12-04T16:47:10
8P|CAX09|34.385515|-117.15355|1273.2375|Ord Mountains, CA, USA|2019-05-10T20:53:34|2019-06-20T17:11:58
8P|CAX10|34.308949|-116.40545|870.675|Spy Mountain, CA, USA|2019-05-09T17:55:58|2019-06-09T17:20:11
8P|CAX11|34.422015|-115.707431|179.95|Amboy, CA, USA|2019-06-29T18:53:53|2019-07-09T17:48:09
8P|CAX12|34.396477|-115.037716|381.0|Turtle Mountain, CA, USA|2019-05-11T20:02:05|2019-06-20T08:27:50
8P|CAY08|33.725152|-117.938285|8.45|MISQ, CA, USA|2019-07-12T19:58:54|2019-07-23T15:56:30
8P|CAY09|33.729005|-117.230863|541.4|Lakeview Mountains, CA, USA|2019-10-10T21:40:13|2019-11-01T16:21:44
8P|CAY10|33.872982|-116.305078|281.5|Indio Hills, CA, USA|2019-10-11T22:12:00|2019-11-01T23:18:32
8P|CAY11|33.729506|-115.826988|882.45|Joshua Tree, CA, USA|2019-09-27T00:16:45|2019-10-17T17:05:29
8P|CAY12|33.730314|-114.994885|166.975|Palen Mountains, CA, USA|2019-05-08T20:55:57|2019-06-19T17:09:25
8P|CAZ09|33.172276|-116.976486|562.7625|Merriam Mountains, CA, USA|2019-11-03T21:16:18|2019-11-24T16:35:55
8P|CAZ10|33.141656|-116.238208|176.275|Anza Borrego Desert, CA, USA|2019-10-21T19:25:11|2019-11-13T19:35:05
8P|CAZ11|33.075909|-115.709249|-69.45|Sonny Bonno, CA, USA|2019-06-17T17:36:01|2019-07-20T16:20:19
8P|CAZ12|33.177356|-114.935505|367.3625|Mount Barrow, CA, USA|2019-05-07T22:26:57|2019-06-16T17:32:16